[
  {
    "id": "1773000000001",
    "name": "test",
    "location": "Andheri Test Location",
    "lat": 19.1136,
    "lng": 72.8697,
    "type": "Fire",
    "severity": "High",
    "description": "A large fire was spotted in this area, we need immediate support! Over 20 chars",
    "timestamp": "2026-03-13T23:03:00.000Z",
    "time": "05:33",
    "date": "14 Mar",
    "status": "verified"
  },
  {
    "id": "1773000000002",
    "name": "jayesh",
    "location": "jodhpur ,rajasthan",
    "lat": 26.2389,
    "lng": 73.0243,
    "type": "Industrial Accident",
    "severity": "Low",
    "description": "khasdfhakdsjfbkdbckvdsbvdsvsdvdsv",
    "timestamp": "2026-03-13T23:04:00.000Z",
    "time": "05:34",
    "date": "14 Mar",
    "status": "verified"
  },
  {
    "id": "1773447630890",
    "name": "John Singh",
    "phone": "9876543210",
    "aadhaar": "987654321012",
    "location": "Jaipur",
    "lat": 26.9124,
    "lng": 75.7873,
    "type": "Flood",
    "severity": "High",
    "description": "A flood is spreading through the town. Fast rising water.",
    "timestamp": "2026-03-14T00:20:30.890Z",
    "time": "05:50",
    "date": "14 Mar",
    "status": "resolved"
  },
  {
    "id": "1773448022542",
    "name": "Test User",
    "phone": "9876543210",
    "aadhaar": "123456789012",
    "location": "Mumbai",
    "lat": 19.076,
    "lng": 72.8777,
    "type": "Flood",
    "severity": "High",
    "description": "Manual fetch test - flooding in Mumbai.",
    "timestamp": "2026-03-14T00:27:02.542Z",
    "time": "05:57",
    "date": "14 Mar",
    "status": "verified"
  },
  {
    "id": "1773449487431",
    "name": "Map Test",
    "phone": "9000000001",
    "aadhaar": "111122223333",
    "location": "Delhi",
    "type": "Earthquake",
    "severity": "Medium",
    "description": "Tremors felt across central Delhi area near the city centre. Emergency services alerted.",
    "lat": 28.7041,
    "lng": 77.1025,
    "timestamp": "2026-03-14T00:51:27.431Z",
    "time": "06:21",
    "date": "14 Mar",
    "status": "verified"
  },
  {
    "id": "1773451645057",
    "name": "tester",
    "phone": "7851941889",
    "aadhaar": "495792937472",
    "location": "assam",
    "type": "Landslide",
    "severity": "Low",
    "description": "sand and rocks falling",
    "lat": 26.2006,
    "lng": 92.9376,
    "timestamp": "2026-03-14T01:27:25.057Z",
    "time": "06:57",
    "date": "14 Mar",
    "status": "verified"
  },
  {
    "id": "1773452186928",
    "name": "RealTime Test",
    "phone": "9111000002",
    "aadhaar": "111100002222",
    "location": "Guwahati",
    "type": "Flood",
    "severity": "High",
    "description": "Major flooding reported in Guwahati, Assam. Roads submerged in multiple areas.",
    "lat": 26.1445,
    "lng": 91.7362,
    "timestamp": "2026-03-14T01:36:26.928Z",
    "time": "07:06",
    "date": "14 Mar",
    "status": "verified"
  },
  {
    "id": "1773460051050",
    "name": "Test User",
    "phone": "9876543210",
    "aadhaar": "123456789012",
    "location": "Mumbai, Maharashtra",
    "type": "Flood",
    "severity": "High",
    "description": "Major flooding reported in the western suburbs. Roads are completely submerged and people are stranded on rooftops.",
    "lat": 19.076,
    "lng": 72.8777,
    "timestamp": "2026-03-14T03:47:31.050Z",
    "time": "09:17",
    "date": "14 Mar",
    "status": "verified"
  },
  {
    "id": "1773460551764",
    "name": "Status Test User",
    "phone": "9000012345",
    "aadhaar": "888877776666",
    "location": "Chennai, Tamil Nadu",
    "type": "Cyclone",
    "severity": "Low",
    "description": "Massive cyclone approaching Chennai coastline, heavy rains and 140km/h winds reported",
    "lat": 13.0827,
    "lng": 80.2707,
    "timestamp": "2026-03-14T03:55:51.764Z",
    "time": "09:25",
    "date": "14 Mar",
    "status": "verified"
  },
  {
    "id": "1773461055294",
    "name": "Workflow Test",
    "phone": "9111122233",
    "aadhaar": "111122223333",
    "location": "Pune, Maharashtra",
    "type": "Earthquake",
    "severity": "High",
    "description": "Strong tremors felt across Pune city. Multiple buildings showing cracks. Residents evacuating in panic.",
    "lat": 18.5204,
    "lng": 73.8567,
    "timestamp": "2026-03-14T04:04:15.294Z",
    "time": "09:34",
    "date": "14 Mar",
    "status": "resolved"
  },
  {
    "id": "1773461513306",
    "name": "Test User",
    "phone": "1234567890",
    "aadhaar": "111122223333",
    "location": "kota",
    "type": "Industrial Accident",
    "severity": "Low",
    "description": "wEGwregwedgDEgEWgsegesgedg",
    "lat": 20.5937,
    "lng": 78.9629,
    "timestamp": "2026-03-14T04:11:53.305Z",
    "time": "09:41",
    "date": "14 Mar",
    "status": "verified"
  },
  {
    "id": "1773462371494",
    "name": "Verify Test User",
    "phone": "9777788889",
    "aadhaar": "777788889999",
    "location": "Kolkata, West Bengal",
    "type": "Flood",
    "severity": "Low",
    "description": "Massive flooding in central Kolkata. Waterlogging across streets. Multiple residential areas submerged.",
    "lat": 22.5726,
    "lng": 88.3639,
    "timestamp": "2026-03-14T04:26:11.494Z",
    "time": "09:56",
    "date": "14 Mar",
    "status": "resolved",
    "aiPriorityLabel": "LOW"
  },
  {
    "id": "1773489942559",
    "name": "Jatin Jangir",
    "phone": "7014268061",
    "aadhaar": "921756548591",
    "location": "Palamu , Jharkhand",
    "type": "Flood",
    "severity": "Medium",
    "description": "very dangerous flood in the locality bound to stay on the second floor",
    "lat": 23.6102,
    "lng": 85.2799,
    "timestamp": "2026-03-14T12:05:42.559Z",
    "time": "17:35",
    "date": "14 Mar",
    "status": "pending",
    "aiPriorityLabel": "HIGH",
    "audioUrl": "/uploads/audio/audio_1773489942539.webm",
    "videoUrl": "/uploads/videos/video_1773489942541.mp4",
    "imageUrl": "/uploads/images/image_1773489942557.webp",
    "transcription": null
  }
]